[
  {
    "name" :"Orgada",
    "contacts" : [
      {
        "type" : "phone",
        "value" : "0597430457",
        "location" :
        {
          "city":"Jennin",
          "street":"Main street",
          "section":"A"
        }
      },
      {
        "type" : "telephone",
        "value" : "043653252",
        "location" :
        {
          "city":"Jerico",
          "street":"Hashem st",
          "section":"55"
        }
      }
    ]
  },
  {
    "name": "White lounge",
    "contacts": [
      {
        "type" : "phone",
        "value" : "056321458",
        "location" : {
          "city" : "Nablus",
          "street" : "Tounis",
          "section" : "capital"
        }
      }
    ]
  },

  {
    "name" :"Ward",
    "contacts" : [
      {
        "type" : "phone",
        "value" : "0565656",
        "location" :
        {
          "city":"Rammallah",
          "street":"Main street",
          "section":"A"
        }
      },
      {
        "type" : "telephone",
        "value" : "0999",
        "location" :
        {
          "city":"Nablus",
          "street":"Amman street",
          "section":"55"
        }
      }
    ]
  },
  {
    "name": "90's",
    "contacts": [
      {
        "type" : "telephone",
        "value" : "092345125",
        "location" : {
          "city" : "Madrid",
          "street" : "10th st",
          "section" : "capital"
        }
      }
    ]
  }
]